name,address,latitude,longitude,opening_hours,website,instagram,map_embed
WARP SHINJUKU,〒160-0021 東京都新宿区歌舞伎町１丁目２１−１ 第二東亜会館 B1,35.6952253,139.70130699999999,,,,https://www.google.com/maps/embed/v1/place?key=AIzaSyAut9NbtYesO3gS65jsNLQxmn9WzohquRs&q=place_id:ChIJvYQ91B-NGGARALbKcCguZS4
Tide Tokyo,〒160-0021 東京都新宿区歌舞伎町１丁目２−３ レオ新宿ビル １．２F,35.69358460000001,139.7039072,,,,https://www.google.com/maps/embed/v1/place?key=AIzaSyAut9NbtYesO3gS65jsNLQxmn9WzohquRs&q=place_id:ChIJk8pO4dmNGGAR1FADOmAsVdg
T2 SHINJUKU,〒160-0023 東京都新宿区西新宿７丁目１−１ 新宿カレイドビル 7F,35.6941128,139.69908709999999,,,,https://www.google.com/maps/embed/v1/place?key=AIzaSyAut9NbtYesO3gS65jsNLQxmn9WzohquRs&q=place_id:ChIJnRBchk-NGGARl4O6MNpXllM
Neo Masquerade,〒160-0022 東京都新宿区新宿２丁目１６−８,35.6915787,139.708532,,,,https://www.google.com/maps/embed/v1/place?key=AIzaSyAut9NbtYesO3gS65jsNLQxmn9WzohquRs&q=place_id:ChIJI6MG38KMGGARzuqkrd1WzYk
ZEROTOKYO,〒160-0021 東京都新宿区歌舞伎町１丁目２９−１,35.6957837,139.7005074,,,,https://www.google.com/maps/embed/v1/place?key=AIzaSyAut9NbtYesO3gS65jsNLQxmn9WzohquRs&q=place_id:ChIJH3nGVNyNGGAR2MpoFj9X4_0
KINGDOM TOKYO,〒160-0022 東京都新宿区新宿２丁目１０−１０ 7TOMビル 1F,35.6900994,139.70809459999998,,,,https://www.google.com/maps/embed/v1/place?key=AIzaSyAut9NbtYesO3gS65jsNLQxmn9WzohquRs&q=place_id:ChIJVwzQv8KNGGAR604QPGXjpz4
DJ BAR Bridge SHINJUKU / DJ バー ブリッジ 新宿,〒160-0022 東京都新宿区新宿２丁目１９−９ 角ビル B1,35.691742999999995,139.70737119999998,,,,https://www.google.com/maps/embed/v1/place?key=AIzaSyAut9NbtYesO3gS65jsNLQxmn9WzohquRs&q=place_id:ChIJCehnb2iNGGAR_y3ylUg-Fqg
