name,address,latitude,longitude,opening_hours,website,instagram,map_embed
WWW,〒150-0042 東京都渋谷区宇田川町１３−１７ シネマライズビル B1F,35.6615357,139.6987369,,,,https://www.google.com/maps/embed/v1/place?key=AIzaSyAut9NbtYesO3gS65jsNLQxmn9WzohquRs&q=place_id:ChIJ4egeAqmMGGARmZLLD4Roo1I
SHIBUYA CYCLONE,〒150-0042 東京都渋谷区宇田川町１３−１６ コクサイビル A館 B2,35.6614214,139.6984212,,,,https://www.google.com/maps/embed/v1/place?key=AIzaSyAut9NbtYesO3gS65jsNLQxmn9WzohquRs&q=place_id:ChIJY5qHUJONGGAR33VuSvFRos8
渋谷 CLUB QUATTRO,〒150-0042 東京都渋谷区宇田川町３２−１３ 4・5F,35.6611055,139.6975463,,,,https://www.google.com/maps/embed/v1/place?key=AIzaSyAut9NbtYesO3gS65jsNLQxmn9WzohquRs&q=place_id:ChIJcbk5C6mMGGARp-MhjqJJEnM
La. mama,〒150-0043 東京都渋谷区道玄坂１丁目１５−３ B1,35.657167799999996,139.697934,,,,https://www.google.com/maps/embed/v1/place?key=AIzaSyAut9NbtYesO3gS65jsNLQxmn9WzohquRs&q=place_id:ChIJN9jxQFaLGGARMDDqIqD1LKQ
渋谷LUSH,〒150-0002 東京都渋谷区渋谷１丁目１０−７ グローリア宮益坂Ⅲ南館 B1F,35.6605025,139.7049533,,,,https://www.google.com/maps/embed/v1/place?key=AIzaSyAut9NbtYesO3gS65jsNLQxmn9WzohquRs&q=place_id:ChIJw4lClFiLGGARM8yY1E-O7ao
shibuya THE GAME,〒150-0042 東京都渋谷区宇田川町４−７ トウセン宇田川町ビル ２階,35.6624814,139.6978947,,,,https://www.google.com/maps/embed/v1/place?key=AIzaSyAut9NbtYesO3gS65jsNLQxmn9WzohquRs&q=place_id:ChIJq6rOO6mMGGARf9RkPp6ns4Q
SHIBUYA DIVE,〒150-0011 東京都渋谷区東２丁目２２−２２−５,35.653928,139.70854079999998,,,,https://www.google.com/maps/embed/v1/place?key=AIzaSyAut9NbtYesO3gS65jsNLQxmn9WzohquRs&q=place_id:ChIJWXRf5LOLGGAR-fu55hDWVMo
Spotify O-EAST,〒150-0043 東京都渋谷区道玄坂２丁目１４−８,35.6587215,139.6956111,,,,https://www.google.com/maps/embed/v1/place?key=AIzaSyAut9NbtYesO3gS65jsNLQxmn9WzohquRs&q=place_id:ChIJWxh5F6qMGGARZ2N7PRSCCXk
渋谷チェルシーホテル,〒150-0042 東京都渋谷区宇田川町４−７ トウセン宇田川町ビル B1,35.662393099999996,139.6978805,,,,https://www.google.com/maps/embed/v1/place?key=AIzaSyAut9NbtYesO3gS65jsNLQxmn9WzohquRs&q=place_id:ChIJrZ7dO6mMGGAR40aPVfYqA4s
Spotify O-WEST,〒150-0044 東京都渋谷区円山町２−３ 2F,35.6584971,139.6952949,,,,https://www.google.com/maps/embed/v1/place?key=AIzaSyAut9NbtYesO3gS65jsNLQxmn9WzohquRs&q=place_id:ChIJVce7FqqMGGARcDNxyfL6VP8
