name,address,latitude,longitude,opening_hours,website,instagram,map_embed
TK NIGHTCLUB,〒150-0042 東京都渋谷区宇田川町１３−８ B1,35.660941099999995,139.6985674,,,,https://www.google.com/maps/embed/v1/place?key=AIzaSyAut9NbtYesO3gS65jsNLQxmn9WzohquRs&q=place_id:ChIJi9W-AKmMGGARgTIvRY42-po
CLUB CAMELOT,〒150-0041 東京都渋谷区神南１丁目１８−２ フレーム神南坂 B3,35.662659999999995,139.70003699999998,,,,https://www.google.com/maps/embed/v1/place?key=AIzaSyAut9NbtYesO3gS65jsNLQxmn9WzohquRs&q=place_id:ChIJu5JQ66iMGGARx4LoABnQNPU
IBEX TOKYO,"21泰明ビル 5F, ３丁目-１１-6 六本木 港区 東京都 106-0032",35.663082599999996,139.73316409999998,,,,https://www.google.com/maps/embed/v1/place?key=AIzaSyAut9NbtYesO3gS65jsNLQxmn9WzohquRs&q=place_id:ChIJ24YF8JyLGGARQoS15T_ctL0
HARLEM,〒150-0044 東京都渋谷区円山町２−４ Dr−２−４ ドクタージーカンズビル 2F・3F,35.658305999999996,139.69527390000002,,,,https://www.google.com/maps/embed/v1/place?key=AIzaSyAut9NbtYesO3gS65jsNLQxmn9WzohquRs&q=place_id:ChIJS9rHE6qMGGARShO63ATTEow
ボノボ,〒150-0001 東京都渋谷区神宮前２丁目２３−４,35.6745665,139.7110979,,,,https://www.google.com/maps/embed/v1/place?key=AIzaSyAut9NbtYesO3gS65jsNLQxmn9WzohquRs&q=place_id:ChIJN83gY72MGGARoGwlh7sSuWQ
BAIA,〒150-0042 東京都渋谷区宇田川町１６−１７,35.661639799999996,139.6990748,,,,https://www.google.com/maps/embed/v1/place?key=AIzaSyAut9NbtYesO3gS65jsNLQxmn9WzohquRs&q=place_id:ChIJETgY-i-NGGAROpxb-9rKp1E
VENT Tokyo,〒107-0062 東京都港区南青山３丁目１８−１９,35.665185099999995,139.7128548,,,,https://www.google.com/maps/embed/v1/place?key=AIzaSyAut9NbtYesO3gS65jsNLQxmn9WzohquRs&q=place_id:ChIJcfUl2p-MGGARa78QN0al3nM
DJ Bar & Lounge WREP,〒150-0002 東京都渋谷区渋谷１丁目２５−６ 渋谷パークサイド共同ビル ９階,35.6596826,139.7015088,,,,https://www.google.com/maps/embed/v1/place?key=AIzaSyAut9NbtYesO3gS65jsNLQxmn9WzohquRs&q=place_id:ChIJ__9LAliLGGARysMvf07AlXY
